,index,City,Country,Lat,Long,Cloudiness,Humidity,Max Temp,Wind Speed
0,0,jumla,NP,29.28,82.18,76,57,278.13,0.23
1,1,norman wells,CA,65.28,-126.83,75,92,260.15,2.6
2,2,severo-kurilsk,RU,50.68,156.12,95,80,266.73,15.43
3,3,hasaki,JP,35.73,140.83,20,39,282.04,5.1
4,4,pacific grove,US,36.62,-121.92,90,70,282.59,2.6
5,5,nikolskoye,RU,59.7,30.79,90,86,274.82,4
6,6,chapais,CA,49.78,-74.86,90,85,264.15,4.6
7,7,rikitea,PF,-23.12,-134.97,99,73,299.37,1.25
8,8,qaanaaq,GL,77.48,-69.36,100,88,260.48,2.01
9,9,khatanga,RU,71.98,102.47,100,95,245.64,3.37
10,10,hobart,AU,-42.88,147.33,75,48,289.15,8.2
11,11,punta arenas,CL,-53.16,-70.91,75,70,280.15,2.6
13,13,san patricio,PY,-26.98,-56.83,52,65,290.3,2.77
14,14,airai,TL,-8.93,125.41,67,28,304.75,3.53
15,15,hermanus,ZA,-34.42,19.24,22,91,290.93,1.79
16,16,sistranda,NO,63.73,8.83,75,74,276.48,8.7
17,17,mount isa,AU,-20.73,139.49,75,19,311.15,3.6
18,18,fort nelson,CA,58.81,-122.69,75,84,258.15,1.5
19,19,beringovskiy,RU,63.05,179.32,100,85,268.79,6.3
20,20,batagay-alyta,RU,67.8,130.41,100,79,247.24,2.65
21,21,dikson,RU,73.51,80.55,52,97,246.33,2.84
22,22,port alfred,ZA,-33.59,26.89,68,95,292.59,4.48
23,23,rio grande,BR,-32.03,-52.1,0,75,291.48,0.89
24,24,mao,DO,19.55,-71.08,20,88,299.26,3.1
25,25,faanui,PF,-16.48,-151.75,100,76,300.77,4.38
26,26,saint anthony,US,43.97,-111.68,1,92,270.93,3.6
27,27,castro,CL,-42.48,-73.76,40,93,282.15,2.1
28,28,butaritari,KI,3.07,172.79,100,72,302.05,3.56
30,30,nishihara,JP,35.74,139.53,20,45,283.71,3.6
31,31,kharp,RU,66.82,65.8,3,80,251.45,0.98
33,33,thompson,CA,55.74,-97.86,20,84,256.15,1
34,34,hithadhoo,MV,-0.6,73.08,100,77,301.1,4.79
35,35,hilo,US,19.71,-155.08,1,65,299.15,4.1
36,36,cururupu,BR,-1.82,-44.87,0,97,295.91,0.92
37,37,ushuaia,AR,-54.81,-68.31,75,96,279.15,4.1
39,39,mataura,NZ,-46.19,168.86,100,64,288.15,5.81
40,40,guerrero negro,MX,27.97,-114.04,100,74,291.28,7.02
41,41,cape town,ZA,-33.93,18.42,75,88,290.93,2.6
42,42,pakdasht,IR,35.48,51.68,75,75,281.15,3.1
43,43,katsuura,JP,33.93,134.5,20,40,284.15,3.6
44,44,tiksi,RU,71.64,128.87,15,87,244.38,4.32
45,45,pevek,RU,69.7,170.27,18,96,246.18,0.25
46,46,charters towers,AU,-20.07,146.27,7,26,307.51,7.28
47,47,jasper,US,33.83,-87.28,20,61,284.82,2.49
48,48,vestmannaeyjar,IS,63.44,-20.27,36,68,274.72,5.42
49,49,faya,SA,18.39,42.45,40,93,287.15,1.21
50,50,southbridge,US,42.08,-72.03,40,59,275.15,5.1
51,51,albany,US,42.65,-73.75,90,69,274.26,2.6
53,53,kruisfontein,ZA,-34,24.73,0,74,290.4,2.36
54,54,sardhana,IN,29.15,77.61,0,63,291.32,1
55,55,bluff,AU,-23.58,149.07,0,22,307.1,5.35
56,56,ippy,CF,6.26,21.2,100,79,294.44,0.78
57,57,almeirim,BR,-1.53,-52.58,1,76,299.16,1.33
58,58,salekhard,RU,66.54,66.62,0,87,249.32,1.57
59,59,marquette,US,46.54,-87.4,90,92,272.15,1.37
60,60,busselton,AU,-33.64,115.35,49,25,297.04,4.19
61,61,souillac,FR,45.6,-0.6,40,100,283.15,1.5
62,62,port hardy,CA,50.7,-127.42,20,92,270.15,3.1
63,63,anadyr,RU,64.73,177.51,75,79,266.15,10
64,64,iqaluit,CA,63.75,-68.52,90,72,263.15,5.1
66,66,gunnedah,AU,-30.98,150.25,100,21,306.15,6.2
67,67,saint george,GR,39.45,22.34,20,93,286.15,2.1
68,68,pombas,BR,-15.9,-54.74,100,93,295.51,1.66
69,69,atuona,PF,-9.8,-139.03,0,79,299.37,8.22
70,70,tuktoyaktuk,CA,69.44,-133.03,20,85,268.15,8.2
71,71,yellowknife,CA,62.45,-114.38,90,85,267.59,7.7
72,72,saint-philippe,CA,45.36,-73.48,90,73,273.15,2.6
73,73,yaan,NG,7.38,8.57,0,55,296.94,1.48
74,74,basco,US,40.33,-91.2,90,86,274.26,2.6
75,75,port lincoln,AU,-34.72,135.86,100,90,286.8,5.34
76,76,mar del plata,AR,-46.43,-67.52,99,44,288.4,6.3
77,77,mokhotlong,LS,-29.29,29.06,0,72,283.46,1.1
78,78,half moon bay,US,37.46,-122.43,90,86,281.48,4.1
79,79,victoria,BN,5.28,115.24,75,79,303.15,1.5
80,80,puerto montt,CL,-41.47,-72.94,90,93,284.15,2.1
82,82,serowe,BW,-22.4,26.7,0,32,293.58,2.92
83,83,vostok,RU,46.45,135.83,30,76,259.02,2.68
84,84,mahon,IE,51.89,-8.4,75,93,281.48,3.6
85,85,komsomolets,RU,52.77,41.29,100,77,272.83,4.21
86,86,olinda,AU,-37.84,145.39,20,52,299.26,6.7
87,87,bredasdorp,ZA,-34.53,20.04,0,88,291.15,4.6
88,88,kodiak,US,39.95,-94.76,90,91,274.15,4.1
89,89,plettenberg bay,ZA,-34.05,23.37,33,52,293.61,1.38
90,90,grindavik,IS,63.84,-22.43,75,66,276.15,0.5
91,91,colquechaca,BO,-18.7,-66,100,84,284.51,2.39
92,92,ipixuna,BR,-1.76,-48.8,12,83,299.15,4.6
93,93,popondetta,PG,-8.77,148.24,0,50,301.12,2.58
94,94,anenecuilco,MX,18.77,-98.98,0,72,293.71,2.24
95,95,nioki,CD,-2.72,17.69,28,97,294.28,1.29
96,96,great bend,US,38.36,-98.78,90,93,275.15,5.1
97,97,havelock,US,34.88,-76.9,1,50,284.15,4.1
98,98,goderich,CA,43.74,-81.71,87,86,273.15,7.6
99,99,nome,US,30.04,-94.42,90,94,293.15,4.6
100,100,kambove,CD,-10.88,26.6,100,96,289.48,0.67
101,101,kavaratti,IN,10.57,72.64,49,73,301.97,5.5
102,102,tautira,PF,-17.73,-149.15,20,70,303.15,7.2
103,103,staraya kulatka,RU,52.73,47.62,58,85,267.77,2.7
104,104,kapaa,US,22.08,-159.32,75,74,300.15,1.5
105,105,hobyo,SO,5.35,48.53,100,77,297.17,5.33
106,106,tura,RU,64.27,100.22,100,86,257.46,5.12
107,107,lebu,ET,8.96,38.73,19,94,282.65,0.69
108,108,ginir,ET,7.14,40.71,36,87,285.26,1.63
109,109,yulara,AU,-25.24,130.99,0,22,305.15,2.1
110,110,upernavik,GL,72.79,-56.15,100,67,270.53,5.67
111,111,tuatapere,NZ,-46.13,167.69,100,64,288.15,5.81
113,113,seydi,NE,13.34,7.75,21,18,294.73,3.79
114,114,namibe,AO,-15.19,12.15,93,83,295.78,4.19
115,115,jamestown,AU,-33.21,138.6,98,15,303.33,5.43
116,116,la rioja,AR,-29.41,-66.86,0,56,293.87,1.74
117,117,beloha,MG,-25.17,45.06,0,80,293.5,3.61
119,119,lompoc,US,34.64,-120.46,75,93,282.15,4.53
120,120,cedar city,US,37.68,-113.06,90,100,272.15,1.5
121,121,mahebourg,MU,-20.41,57.7,20,94,298.15,1.5
122,122,san francisco,CO,1.17,-76.88,82,94,282.91,1.59
123,123,tasiilaq,GL,65.61,-37.64,94,68,270.15,6.2
124,124,dobryatino,RU,55.51,41.32,100,85,272.22,4.45
125,125,puerto ayora,EC,-0.74,-90.35,64,90,294.82,1.79
126,126,minab,IR,27.15,57.07,0,66,286.15,1.83
127,127,victor harbor,AU,-35.55,138.62,75,67,290.93,7.2
128,128,duluth,US,46.77,-92.13,90,85,271.48,1.5
129,129,bubaque,GW,11.28,-15.83,0,65,300.86,4.24
130,130,sokoni,CD,-12.89,28.78,94,95,290.13,1.25
131,131,ribeira grande,PT,38.52,-28.7,97,92,290.19,6.62
132,132,geraldton,CA,49.72,-86.95,90,92,264.15,2.1
133,133,carnarvon,ZA,-30.97,22.13,87,25,293.64,1.22
134,134,katangli,RU,51.71,143.23,0,71,261.43,6.24
135,135,barrow,AR,-38.31,-60.23,81,88,288.18,4.12
136,136,rio gallegos,AR,-51.62,-69.22,75,84,282.15,7.7
138,138,cherskiy,RU,68.75,161.3,11,85,240.52,3.22
139,139,indianola,US,40.24,-100.42,90,100,273.15,6.2
140,140,kaitangata,NZ,-46.28,169.85,100,57,287.59,3.58
141,141,bathsheba,BB,13.22,-59.52,75,78,300.15,4.1
142,142,leningradskiy,RU,69.38,178.42,0,87,253.85,2.09
143,143,arraial do cabo,BR,-22.97,-42.02,100,95,295.91,5.48
144,144,klaksvik,FO,62.23,-6.59,100,64,274.15,4.1
145,145,bethel,US,60.79,-161.76,75,92,266.15,3.6
146,146,wattegama,LK,7.35,80.68,100,93,296.49,1.22
149,149,novikovo,RU,51.15,37.89,100,96,276.08,4.22
151,151,progreso,UY,-34.68,-56.22,0,52,294.15,4.1
152,152,padang,ID,-0.92,100.36,14,61,300.89,0.8
153,153,burnie,AU,-41.05,145.91,95,41,291.48,3.58
154,154,koslan,RU,63.46,48.9,100,92,268.83,4.86
155,155,coihaique,CL,-45.58,-72.07,74,57,284.15,3.1
157,157,chadiza,ZM,-14.06,32.43,100,92,292.3,1.34
158,158,vaini,IN,15.34,74.49,20,94,295.15,3.1
159,159,sal rei,CV,16.18,-22.92,75,73,296.15,4.1
160,160,napier,NZ,-39.49,176.92,0,57,298.71,3.13
162,162,san carlos de bariloche,AR,-41.13,-71.31,75,87,280.15,5.1
163,163,dolores,UY,-33.53,-58.22,0,61,293.15,1.79
165,165,wajid,SO,3.81,43.25,65,63,295,4.42
166,166,torbay,CA,47.66,-52.73,90,95,274.82,6.2
167,167,te anau,NZ,-45.41,167.72,67,52,287.91,2.16
168,168,saldanha,PT,41.42,-6.55,94,98,283.56,2.04
169,169,ponoka,CA,52.68,-113.59,90,92,264.26,1.5
170,170,abay,KZ,49.63,72.87,90,76,250.15,1
171,171,qasigiannguit,GL,68.82,-51.19,100,38,270.15,3.1
172,172,campbellton,CA,48,-66.68,27,86,268.7,3.54
173,173,makakilo city,US,21.35,-158.09,1,65,303.15,4.1
174,174,ambon,FR,47.55,-2.56,75,93,284.82,2.1
175,175,samarai,PG,-10.62,150.67,91,81,300.71,2.48
176,176,rafai,CF,4.95,23.92,91,96,293.34,0.31
177,177,sangar,RU,63.92,127.47,100,96,241.43,2.82
178,178,verkhnyaya sinyachikha,RU,57.98,61.67,49,90,264.51,2.71
179,179,kudahuvadhoo,MV,2.67,72.89,99,82,300.56,7.68
180,180,shizunai,JP,42.33,142.37,0,46,271.92,1.67
181,181,ust-kan,RU,50.93,84.77,96,86,255.78,2.91
182,182,salinopolis,BR,-0.61,-47.36,97,79,301,8.33
183,183,ponta do sol,BR,-20.63,-46,100,95,293.25,1.51
184,184,longyearbyen,NO,78.22,15.63,66,58,254.15,13.9
185,185,inta,RU,66.04,60.13,99,81,262.47,3.29
186,186,wuchang,CN,44.93,127.16,0,42,263.45,2.23
190,190,dunedin,NZ,-45.87,170.5,100,66,286.48,5.36
191,191,new norfolk,AU,-42.78,147.06,75,48,289.26,8.2
193,193,maniitsoq,GL,65.42,-52.9,44,55,270.83,4.68
195,195,deputatskiy,RU,69.3,139.9,0,85,243.44,3.23
196,196,santa lucia,IT,41.98,12.66,97,93,287.04,1.5
197,197,uyuni,BO,-20.46,-66.82,100,21,284.8,2.94
198,198,mizan teferi,ET,6.99,35.58,14,89,289.36,1.61
199,199,gladstone,AU,-23.84,151.26,0,48,304.26,5.7
200,200,necochea,AR,-38.55,-58.74,100,85,292.04,2.68
201,201,adrar,DZ,27.87,-0.29,0,41,287.15,2.1
202,202,georgetown,GY,6.8,-58.16,40,88,299.15,1
204,204,narsaq,GL,60.91,-46.05,0,45,268.15,2.6
205,205,grand gaube,MU,-20.01,57.66,20,94,298.15,1.5
206,206,hamilton,CA,43.26,-79.87,90,74,273.71,3.1
207,207,gazojak,TM,41.19,61.4,30,64,271.35,5.49
208,208,ust-maya,RU,60.42,134.54,100,91,249.87,3.54
209,209,santa maria do suacui,BR,-18.19,-42.41,100,92,293.36,0.95
210,210,zhigansk,RU,66.77,123.37,100,95,250.52,9.94
211,211,kangalassy,RU,62.35,129.97,100,74,241.15,1
212,212,vagay,RU,57.94,69.02,70,97,262.96,2.09
213,213,srednekolymsk,RU,67.46,153.71,100,86,241.07,2.23
214,214,luderitz,NA,-26.65,15.16,10,87,289.15,3.1
215,215,hami,CN,42.84,93.51,97,29,271.26,0.96
216,216,san rafael del sur,NI,11.85,-86.44,20,83,300.15,5.1
217,217,aklavik,CA,68.22,-135.01,75,79,270.15,1
218,218,maragheh,IR,37.39,46.24,90,87,280.15,2.1
220,220,perelyub,RU,51.87,50.37,67,93,268.08,6.41
221,221,inongo,CD,-1.93,18.29,33,92,293.93,0.56
222,222,homer,US,59.64,-151.54,90,75,286.15,4.6
223,223,zalantun,CN,48,122.72,0,45,262.56,1.89
225,225,chor,PK,25.52,69.77,0,39,292.35,4.62
226,226,saskylakh,RU,71.97,114.09,100,97,246.26,3.03
227,227,lagoa,PT,37.14,-8.45,0,100,287.59,1
228,228,seymchan,RU,62.93,152.39,100,97,248.75,1.91
229,229,kutum,SD,14.2,24.66,0,29,288.46,2.48
231,231,pedro ii,BR,-4.43,-41.45,2,57,297.63,1.14
232,232,havre-saint-pierre,CA,50.23,-63.6,1,68,272.15,9.8
233,233,kormilovka,RU,55,74.1,40,71,260.15,3
234,234,naron,ES,43.52,-8.15,20,87,286.48,2.1
235,235,sitka,US,37.17,-99.65,100,97,274.82,4.47
236,236,komsomolskiy,RU,67.55,63.78,37,96,251.23,2.34
237,237,juneau,US,58.3,-134.42,90,92,273.71,0.51
238,238,walvis bay,NA,-22.95,14.51,95,88,290.15,3.1
239,239,nanortalik,GL,60.14,-45.24,26,54,274.27,3.72
240,240,karaton,ID,-6.34,106.1,40,66,304.82,1.5
241,241,mahibadhoo,MV,3.78,72.97,100,94,298.01,9.99
242,242,zhaoyang,CN,42.68,126.03,0,65,262.97,0.41
243,243,vardo,US,39.62,-77.74,90,60,278.71,6.2
244,244,lorengau,PG,-2.02,147.27,100,67,302.18,3.06
245,245,omboue,GA,-1.57,9.26,100,96,297.13,1.01
246,246,port blair,IN,11.67,92.75,92,80,301.83,8.17
247,247,taoudenni,ML,22.68,-3.98,31,27,290.22,2.24
248,248,grand forks,US,47.91,-97.06,90,79,269.15,4.1
249,249,ambulu,ID,-8.35,113.61,33,80,300.84,5.4
250,250,lavrentiya,RU,65.58,-170.99,31,65,263.1,1.88
251,251,kaduna,NG,10.52,7.44,0,21,293.37,2.88
252,252,portland,US,43.66,-70.25,1,64,275.93,8.2
253,253,pirgos,GR,35.12,25.72,20,82,292.59,3.1
254,254,east london,ZA,-33.02,27.91,23,86,295.46,9.33
255,255,los llanos de aridane,ES,28.66,-17.92,75,72,293.15,4.6
256,256,votice,CZ,49.64,14.64,40,81,283.15,10.8
257,257,kaiserslautern,DE,49.44,7.77,75,93,283.71,5.7
258,258,nantucket,US,41.28,-70.1,90,70,279.15,14.9
259,259,vanimo,PG,-2.67,141.3,74,75,301.65,4.81
260,260,marsa matruh,EG,31.35,27.25,0,87,284.15,2.79
261,261,kaspiysk,RU,42.88,47.64,40,86,278.15,1
262,262,mount gambier,AU,-37.83,140.78,90,48,290.15,4.6
263,263,port elizabeth,US,39.31,-74.98,1,64,279.26,4.1
265,265,sao felix do xingu,BR,-6.64,-51.99,48,91,295.82,0.79
266,266,cidreira,BR,-30.17,-50.22,0,64,293.96,10.85
267,267,sao filipe,CV,14.9,-24.5,100,84,295.63,4.71
268,268,scarborough,GB,54.28,-0.41,91,93,278.71,3.1
269,269,diffa,NE,13.32,12.61,45,18,296.45,5.19
270,270,provideniya,RU,64.42,-173.23,94,72,265.15,3
271,271,bonavista,CA,48.65,-53.11,100,86,274.26,3.58
272,272,whyalla,AU,-33.04,137.58,23,64,293.15,10.3
273,273,ouesso,CG,1.61,16.05,0,82,294.15,0.65
275,275,la ronge,CA,55.1,-105.3,90,79,266.15,4.6
276,276,snasa,NO,64.25,12.38,100,97,265.4,2.73
278,278,dingle,PH,11,122.67,54,86,299.78,5.55
279,279,netanya,IL,32.33,34.86,0,71,290.37,1.5
280,280,aldan,RU,58.61,125.39,100,93,257.19,2.84
281,281,salalah,OM,17.01,54.1,20,64,297.15,2.1
282,282,isangel,VU,-19.55,169.27,75,51,303.15,6.2
283,283,evensk,RU,61.92,159.24,100,89,253.47,7.47
284,284,prince rupert,CA,54.32,-130.32,1,39,273.15,2.6
286,286,marzuq,YE,14.4,46.47,100,50,286.82,0.88
287,287,gumdag,TM,39.2,54.59,83,48,277.68,7.22
288,288,kurilsk,RU,45.23,147.88,100,73,270.23,3.9
289,289,waingapu,ID,-9.65,120.26,17,78,302,6.07
290,290,aksu,KZ,52.04,76.93,75,78,261.15,6
291,291,dudinka,RU,69.41,86.18,75,83,251.15,15
292,292,shumskiy,RU,54.83,99.13,0,79,259.24,1.69
293,293,avarua,CK,-21.21,-159.78,0,65,300.15,1.5
294,294,kargasok,RU,59.06,80.87,95,95,259.85,4.19
295,295,kavieng,PG,-2.57,150.8,50,64,302.06,0.95
296,296,batemans bay,AU,-35.71,150.18,0,11,305.37,0.89
297,297,hoima,UG,1.43,31.35,40,91,290.7,0.29
298,298,saint-francois,FR,46.42,3.91,100,87,281.48,3.6
299,299,chokurdakh,RU,70.62,147.9,75,93,245.7,4.58
300,300,tarakan,ID,3.3,117.63,75,89,302.15,1
301,301,alenquer,BR,-1.95,-54.74,68,94,298.15,1
302,302,north bend,US,43.41,-124.22,1,80,277.15,3.6
303,303,chuy,UY,-33.69,-53.46,0,62,292.49,5.45
304,304,berea,US,37.57,-84.3,90,80,277.15,1.5
305,305,mayo,CA,63.59,-135.9,90,84,258.15,1
306,306,fontem,CM,5.49,9.85,6,76,289.86,1.94
307,307,sao gabriel da cachoeira,BR,-0.13,-67.09,82,97,296.52,0.53
308,308,gweru,ZW,-19.46,29.82,0,68,290.28,2.46
309,309,chinchani,IN,16.42,74.53,20,94,295.15,3.1
310,310,baykit,RU,61.68,96.39,100,90,258.71,4.57
311,311,belyy yar,RU,53.6,91.39,99,84,255.15,4.93
312,312,kota belud,MY,6.35,116.43,75,74,303.71,1.5
313,313,wembley,CA,55.15,-119.14,40,91,254.15,1
314,314,virginia beach,US,36.85,-75.98,1,56,281.15,4.6
315,315,konza,KE,-1.74,37.13,75,93,290.15,2.6
316,316,johnshaven,GB,56.79,-2.34,11,93,275.15,4.1
317,317,high level,CA,58.52,-117.13,90,85,261.15,5.7
318,318,san pedro,AR,-33.68,-59.66,0,59,293.71,2.24
319,319,penzance,GB,50.12,-5.53,26,100,283.71,3.1
320,320,santa ana,MX,30.54,-111.12,100,81,288.71,1.34
321,321,rigaud,CA,45.48,-74.3,40,79,272.59,2.1
322,322,el reno,US,35.53,-97.96,90,100,278.71,6.2
323,323,totness,US,33.74,-80.8,1,70,283.71,4.33
324,324,virtsu,EE,58.57,23.51,90,100,279.82,8.2
325,325,chattanooga,US,35.05,-85.31,75,53,284.15,3.1
327,327,ilulissat,GL,69.22,-51.1,100,38,270.15,3.1
328,328,kiknur,RU,57.3,47.21,98,72,270.58,5
330,330,tiquicheo,MX,18.9,-100.74,0,75,293.76,1.66
332,332,nabire,ID,-3.36,135.5,12,63,304.44,2.41
333,333,ornskoldsvik,SE,63.29,18.72,100,79,267.15,4.1
334,334,nuuk,GL,64.17,-51.74,4,73,269.15,4.6
335,335,banon,BF,11.19,-1.09,0,20,298.16,2.76
336,336,labuhan,ID,-2.54,115.51,41,46,308.17,0.67
337,337,berezovyy,RU,51.67,135.7,0,58,257.66,2.9
338,338,zhangye,CN,38.94,100.46,100,46,269.44,2.5
339,339,pomichna,UA,48.24,31.4,100,97,282.37,6.24
340,340,laguna,BZ,16.17,-88.94,20,83,300.15,3.1
341,341,tinguindin,MX,19.75,-102.48,5,77,294.15,2.21
342,342,tucurui,BR,-3.77,-49.67,0,86,298.24,0.68
343,343,atambua,ID,-9.11,124.89,65,55,303.36,3.2
344,344,leh,IN,34.16,77.58,95,70,258.49,1.84
345,345,lake havasu city,US,34.47,-114.34,1,100,285.93,3.6
346,346,temirgoyevskaya,RU,45.11,40.28,92,87,279.14,3.54
347,347,cairns,AU,-16.92,145.77,75,55,304.82,4.6
348,348,lata,IN,30.78,78.62,100,82,266.77,1.05
349,349,puerto del rosario,ES,28.5,-13.86,93,82,293.15,6.2
350,350,ust-omchug,RU,61.13,149.63,98,98,243.48,2.47
351,351,alta floresta,BR,-9.87,-56.08,96,99,294.51,1.03
352,352,blagoyevo,RU,63.37,47.92,100,92,269.46,5.43
353,353,carman,CA,49.51,-98,90,100,267.15,4.1
354,354,san andres,PH,13.32,122.68,100,64,301.62,6.86
355,355,constitucion,MX,23.99,-104.67,90,71,287.04,2.1
357,357,santa cruz,BR,-6.22,-36.02,26,97,293.68,2.39
358,358,nemuro,JP,43.32,145.57,20,51,273.15,5.7
359,359,muros,ES,42.77,-9.06,90,100,285.93,0.5
361,361,ancud,CL,-41.87,-73.83,40,93,282.15,2.1
362,362,porto belo,BR,-27.15,-48.54,40,60,295.15,3.6
363,363,skeldon,GY,5.88,-57.13,100,84,300.37,4.73
364,364,kabinda,CD,-6.14,24.49,100,96,292.73,0.18
365,365,krasnyy yar,RU,50.7,44.73,100,81,271.65,4.6
366,366,tarpon springs,US,28.15,-82.76,75,82,293.15,2.1
367,367,kongoussi,BF,13.32,-1.53,0,17,298.44,4.01
368,368,turukhansk,RU,65.8,87.96,100,93,258.82,7.04
369,369,fortuna,US,40.6,-124.16,1,93,276.48,0.83
370,370,san lorenzo,HN,13.43,-87.45,49,66,298.23,1.86
371,371,kushiro,JP,43.11,144.15,20,46,272.15,1
372,372,piriyapatna,IN,12.34,76.1,75,78,296.15,3.1
373,373,tahoua,NE,14.89,5.26,0,14,298.15,4.1
374,374,byron bay,AU,-28.65,153.62,59,65,307.15,7.7
375,375,saltillo,MX,25.42,-100.99,40,63,291.15,1.22
376,376,avera,US,33.19,-82.53,1,62,285.37,2.13
377,377,bestobe,KZ,52.5,73.1,48,80,260.31,6.43
378,378,wageningen,NL,51.98,5.66,90,87,281.48,3.1
379,379,chicama,PE,-7.84,-79.15,75,82,293.15,3.1
380,380,hearst,CA,49.69,-83.67,100,95,265.11,1.35
382,382,sarangani,PH,5.4,125.46,46,72,301.45,0.53
383,383,ghanzi,BW,-21.7,21.65,74,31,297.66,2.82
385,385,san quintin,PH,17.54,120.52,44,60,300.66,7.79
386,386,aswan,EG,24.09,32.9,0,56,287.04,4.33
387,387,san luis,AR,-33.3,-66.34,0,41,298.65,9.86
388,388,huicungo,PE,-7.28,-76.8,77,92,291.66,1.89
389,389,vilyuysk,RU,63.75,121.63,98,93,253.69,5.65
390,390,labytnangi,RU,66.66,66.39,0,87,249.32,1.57
391,391,grande prairie,CA,55.17,-118.79,40,91,254.15,1
393,393,santa maria,BR,-16.02,-48.01,40,83,296.15,1.5
394,394,uray,RU,60.13,64.8,17,96,262.3,2.23
396,396,kandrian,PG,-6.21,149.55,58,54,303.08,4.02
397,397,roma,IT,41.89,12.48,97,93,287.04,1.5
398,398,bhum,IN,18.47,75.67,0,63,296.37,3.07
399,399,northam,AU,-31.65,116.67,0,33,295.15,7.2
400,400,umm kaddadah,SD,13.6,26.69,0,22,293.55,5.65
401,401,talnakh,RU,69.49,88.39,75,83,251.15,15
402,402,grand-santi,GF,4.27,-54.38,100,99,295.96,0.8
403,403,mbini,GQ,1.58,9.62,7,83,299.62,2.6
404,404,tavricheskoye,RU,54.59,73.64,40,71,260.15,3
405,405,rundu,NA,-17.91,19.77,5,50,298.15,1.5
406,406,khani,GE,41.96,42.96,75,93,281.15,3.6
407,407,lazaro cardenas,MX,28.39,-105.62,75,55,290.15,2.6
408,408,kondopoga,RU,62.21,34.27,100,80,275.15,4
409,409,mecca,SA,21.43,39.83,0,67,296.64,1.44
410,410,sao joao da barra,BR,-21.64,-41.05,100,95,295.81,3.76
411,411,bambous virieux,MU,-20.34,57.76,20,94,298.15,1.5
412,412,mana,NG,13.03,5.27,7,16,295.77,3.77
413,413,yarmouth,CA,43.84,-66.12,90,93,277.04,10.8
414,414,chapada dos guimaraes,BR,-15.46,-55.75,75,74,300.15,4.1
415,415,vawkavysk,BY,53.15,24.45,100,97,279.08,3.93
416,416,ullapool,GB,57.9,-5.16,0,86,276.48,0.89
417,417,ust-nera,RU,64.57,143.24,100,99,236.98,1.2
418,418,khomeyn,IR,33.64,50.08,9,57,273.68,1.6
420,420,bustamante,MX,26.53,-100.51,53,73,288.53,1.95
421,421,wewak,PG,-3.55,143.63,100,73,301.66,3.15
422,422,manyana,AU,-35.26,150.51,0,42,305.37,6.7
423,423,mayor pablo lagerenza,PY,-19.93,-60.77,90,65,298.29,2
424,424,fort collins,US,40.55,-105.07,1,85,271.48,1.5
425,425,quatre cocos,MU,-20.21,57.76,20,94,298.15,1.5
426,426,henties bay,NA,-22.12,14.28,95,91,289.82,0.89
427,427,sorland,NO,67.67,12.69,100,79,275.54,10.32
428,428,ampanihy,MG,-24.69,44.75,0,80,292.92,4.45
429,429,sola,TZ,-3.17,33.8,81,92,291.13,1.73
430,430,itarema,BR,-2.92,-39.92,4,85,298.14,3.28
431,431,matay,EG,28.42,30.79,0,83,286.51,2.66
432,432,takoradi,GH,4.89,-1.75,1,82,299.94,1.47
434,434,port hedland,AU,-20.31,118.58,0,56,307.15,5.7
435,435,port moresby,PG,-9.47,147.16,40,59,305.15,7.7
437,437,banda aceh,ID,5.56,95.32,77,75,301.12,2.55
438,438,xixiang,CN,22.58,113.87,20,52,292.59,3.6
439,439,jalu,LY,29.03,21.55,0,77,287.44,2.4
441,441,oussouye,SN,12.49,-16.54,0,70,295.87,3.17
442,442,aksehir,TR,38.36,31.42,100,75,281.54,3.16
443,443,karpogory,RU,64,44.44,100,89,271.14,5.22
445,445,road town,VG,18.42,-64.62,40,78,299.26,1.5
446,446,siniscola,IT,40.57,9.69,69,96,281.58,2.62
447,447,rawson,AR,-43.3,-65.11,100,71,288.9,6.23
448,448,ayan,IR,38.23,44.7,97,85,271.8,2.19
449,449,businga,CD,3.34,20.89,100,98,293.71,0.63
450,450,mehamn,NO,71.03,27.85,100,95,270.3,7.98
451,451,meadow lake,CA,54.13,-108.44,83,89,262.21,3.32
452,452,ostrovnoy,RU,68.05,39.51,100,94,268.72,6.74
453,453,balkanabat,TM,39.51,54.36,94,45,280.6,4.85
454,454,horizontina,BR,-27.63,-54.31,23,63,289.82,1.44
455,455,poya,NC,-21.35,165.16,0,77,296.82,8.27
456,456,colac,AU,-38.34,143.59,88,80,291.48,2.68
457,457,miri,NG,10.31,9.75,8,23,293.07,1.73
458,458,douentza,ML,15.01,-2.95,0,23,292.98,1.74
459,459,issenye,CM,12.51,14.37,14,30,297.91,5.31
460,460,belmonte,PT,40.36,-7.35,100,99,287.59,9.83
461,461,tabuk,PH,17.41,121.44,88,82,295.94,6.87
462,462,balaipungut,ID,1.11,101.31,41,63,304.03,1.28
463,463,dawei,MM,14.07,98.19,40,65,301.11,8.34
464,464,hirado,JP,33.32,129.49,40,54,287.15,4.6
465,465,kununurra,AU,-15.77,128.74,99,33,311.15,2.6
466,466,poum,MK,41.28,20.71,74,95,278.81,2.08
467,467,bayir,TR,37.27,28.22,75,93,288.15,2.1
468,468,muravlenko,RU,63.79,74.5,0,92,248.39,5.2
469,469,mattawa,CA,46.32,-78.7,90,85,268.15,3.6
470,470,dvinskoy,RU,62.16,45.12,100,87,271.38,4.77
471,471,tutoia,BR,-2.76,-42.27,0,86,297.76,1.79
472,472,pangai,TO,-19.8,-174.35,20,57,300.15,3.6
473,473,bandipur,IN,11.67,76.63,68,72,294.32,2.05
474,474,gushikawa,JP,26.35,127.87,75,53,296.15,7.7
475,475,bahia blanca,AR,-38.72,-62.27,100,61,291.93,6.12
476,476,tezu,IN,27.93,96.16,0,41,294.74,1.02
477,477,tres passos,BR,-27.46,-53.93,24,68,290.22,3.33
479,479,mapiri,BO,-15.31,-68.22,100,93,291.5,0.52
480,480,port macquarie,AU,-31.43,152.91,78,61,304.26,5.7
481,481,raudeberg,NO,61.99,5.14,95,63,275.15,4.6
482,482,poso,ID,-1.4,120.75,100,74,298.27,1.16
484,484,dehloran,IR,32.69,47.27,83,47,290.79,2.73
485,485,storforshei,NO,66.4,14.52,100,81,265.93,0.45
486,486,vila franca do campo,PT,37.72,-25.43,40,93,292.15,6.7
487,487,traralgon,AU,-38.19,146.54,0,61,297.59,3.13
488,488,elat,CM,2.91,11.16,25,99,292.86,0.67
489,489,manta,RO,45.1,24.1,100,95,279.65,1.15
490,490,barcelos,BR,-0.97,-62.93,100,95,297.16,0.46
491,491,cabo san lucas,MX,22.89,-109.91,75,78,296.48,3.1
492,492,kholtoson,RU,50.3,103.31,100,90,256.92,0.69
493,493,esperance,AU,-33.86,121.89,75,82,286.15,6.7
494,494,alofi,NU,-19.06,-169.92,40,69,299.15,4.1
495,495,chany,RU,55.31,76.76,100,95,262.22,3.87
497,497,humaita,AR,-24.93,-65.37,20,77,297.15,1.5
498,498,xuanzhou,CN,30.95,118.78,59,66,282.57,5.01
499,499,ituiutaba,BR,-18.97,-49.46,100,97,294.54,4.41
501,501,yerbogachen,RU,61.28,108.01,79,93,256.57,4.96
502,502,pindiga,NG,9.98,10.93,15,17,296.74,4
503,503,ketchikan,US,55.34,-131.65,1,74,274.15,2.6
504,504,coruripe,BR,-10.12,-36.18,0,81,297.92,5.97
505,505,clyde river,CA,70.47,-68.59,1,83,251.15,1
506,506,oyem,GA,1.6,11.57,12,98,292.67,0.98
509,509,monrovia,LR,6.33,-10.8,0,85,299.11,2.52
510,510,coahuayana,MX,18.62,-100.35,0,72,296.9,1.51
512,512,bintulu,MY,3.17,113.03,75,83,302.15,2.1
513,513,qujing,CN,25.49,103.8,100,79,284.56,6.55
514,514,morro bay,US,35.37,-120.85,20,93,282.15,3.2
515,515,pisco,PE,-13.71,-76.2,59,82,292.15,6.7
516,516,stephenville,CA,48.55,-58.59,75,87,276.15,5.1
517,517,mazsalaca,LV,57.87,25.05,100,98,275.37,2.24
518,518,fukue,JP,35.03,136.69,20,29,285.37,6.7
519,519,dawlatabad,AF,36.41,64.91,0,60,276.66,1.68
520,520,naze,NG,5.43,7.07,40,94,298.15,1.2
521,521,buta,CD,2.79,24.73,100,98,294.73,0.8
523,523,la sarre,CA,48.8,-79.2,86,97,260.28,1.88
524,524,vilhena,BR,-12.74,-60.15,100,100,294.15,2.1
525,525,qobustan,AZ,40.08,49.41,0,93,280.15,1
527,527,sar-e pul,AF,36.22,65.93,0,24,275.1,2.48
529,529,ahipara,NZ,-35.17,173.16,98,73,300.37,3.94
531,531,cap malheureux,MU,-19.98,57.61,20,94,298.15,1.5
532,532,tigbao,PH,11.26,124.97,30,69,303.02,4.47
533,533,kimbe,PG,-5.56,150.15,34,47,304.83,2.67
534,534,gogapur,IN,23.55,75.52,0,48,295.13,1.12
535,535,chernushka,RU,56.5,56.08,89,92,265.65,5.36
537,537,daru,PG,-9.07,143.21,93,65,302.27,3.68
538,538,krasnyy oktyabr,RU,56.12,38.88,100,95,273.08,4.23
539,539,kupang,ID,-10.16,123.6,20,49,306.15,6.2
540,540,shingu,JP,33.72,135.99,20,37,283.15,1
541,541,vitim,RU,59.44,112.57,100,94,259.26,3.4
542,542,rincon,PA,8.46,-82.28,40,100,298.15,2.1
543,543,camopi,GF,3.17,-52.33,6,93,295.78,1.4
544,544,barnsley,GB,53.55,-1.48,98,86,276.48,4.1
545,545,gizo,IL,31.8,34.94,0,76,287.59,0.5
546,546,praia,BR,-20.25,-43.81,75,94,294.15,1.92
547,547,gazanjyk,TM,39.24,55.52,100,54,277.27,3.61
548,548,chernyshevskiy,RU,63.01,112.47,13,88,258.64,5.84
549,549,mareeba,AU,-16.99,145.42,75,55,304.82,4.6
550,550,kawalu,ID,-7.38,108.21,75,67,300.64,2.52
551,551,uige,AO,-7.61,15.06,96,99,291.87,0.34
552,552,mosetse,BW,-20.64,26.64,0,29,297.2,4.92
553,553,loreto,PY,-23.27,-57.32,100,82,296.3,1.04
554,554,askiz,RU,53.13,90.53,100,83,263.37,4.23
555,555,berlevag,NO,70.86,29.09,100,93,272.56,10.63
556,556,ixtapa,MX,20.71,-105.21,5,74,299.82,1.8
557,557,karratha,AU,-20.74,116.85,0,62,300.72,7.69
559,559,les cayes,HT,18.19,-73.75,0,71,300.79,3.54
560,560,constantine,DZ,36.36,6.61,0,100,278.15,1.5
561,561,buraydah,SA,26.33,43.97,20,100,289.15,2.6
562,562,pobe,BJ,6.98,2.66,0,96,296.73,0.31
563,563,kurchum,KZ,48.57,83.65,0,84,258.39,0.12
564,564,eureka,US,40.8,-124.16,1,93,276.48,1.42
565,565,salavat,RU,53.36,55.92,92,81,265.11,3.56
566,566,vao,EE,59.1,26.19,100,94,276.1,5.08
567,567,usak,TR,38.67,29.41,100,77,282.3,4.03
568,568,jiuquan,CN,39.73,98.49,100,91,265.37,1.52
569,569,mackay,CA,53.65,-115.58,90,85,261.15,3.6
570,570,lake cowichan,CA,48.82,-124.05,5,68,274.26,2.6
572,572,sisimiut,GL,66.94,-53.67,99,59,266.83,4.64
573,573,khorixas,NA,-20.37,14.96,0,59,293.56,1.74
574,574,seoul,KR,37.57,126.98,1,47,277.15,1.5
576,576,aksarka,RU,66.56,67.8,0,95,249.94,3.96
577,577,yar-sale,RU,66.83,70.83,0,90,247.87,3.31
578,578,kysyl-syr,RU,63.9,122.77,100,96,253.22,3.66
579,579,sungairaya,ID,0.7,108.9,94,75,302.85,1.15
580,580,the valley,AI,18.22,-63.06,20,83,299.15,1.5
581,581,blackwater,GB,51.33,-0.78,100,100,280.37,2.1
582,582,kathmandu,NP,27.71,85.32,40,87,284.15,1
583,583,kabansk,RU,52.06,106.65,75,77,254.15,3.13
584,584,springdale,US,36.19,-94.13,90,100,277.15,2.6
585,585,kyzyl-suu,KG,42.34,78,0,55,268.64,3.83
586,586,timizart,DZ,36.8,4.25,0,69,289.94,1.55
587,587,la huacana,MX,18.96,-101.8,5,77,294.15,1.77
588,588,port-gentil,GA,-0.72,8.78,56,82,300.14,5.15
589,589,rabo de peixe,PT,37.8,-25.58,40,93,292.15,6.7
590,590,lovozero,RU,68.01,35.02,100,95,268.8,5.5
591,591,northport,US,33.23,-87.58,1,50,285.37,3.6
592,592,itatiaia,BR,-22.5,-44.56,100,98,291.29,0.5
593,593,sayyan,YE,15.17,44.32,0,56,280.69,1.32
594,594,port shepstone,ZA,-30.74,30.45,54,96,293.92,2.91
596,596,bundaberg,AU,-24.87,152.35,40,48,302.59,4.6
597,597,senneterre,CA,48.39,-77.24,90,100,264.15,6.2
598,598,salta,AR,-24.79,-65.41,20,77,297.15,1.5
600,600,coquimbo,CL,-29.95,-71.34,0,93,287.15,2.6
601,601,surt,LY,31.21,16.59,24,42,289.02,3.07
602,602,hofn,IS,64.25,-15.21,0,62,277.42,6.45
603,603,araouane,ML,18.9,-3.53,0,17,294.15,3.88
604,604,hushitai,CN,41.93,123.51,0,49,269.15,1
605,605,merauke,ID,-8.49,140.4,0,50,305.7,5.66
606,606,vadso,NO,70.07,29.75,90,85,269.15,8.2
607,607,akdepe,TM,42.05,59.39,60,85,266.15,5
608,608,filadelfia,PY,-22.35,-60.04,100,47,299.27,3.36
609,609,santa barbara,US,34.42,-119.7,75,87,282.15,5.1
610,610,destin,US,30.39,-86.5,1,76,290.15,2.92
611,611,nyurba,RU,63.29,118.35,99,88,256.35,4.33
613,613,barranca,PE,-10.75,-77.76,73,92,291.62,4.96
614,614,gagnoa,CI,6.13,-5.95,15,98,295.19,0.63
615,615,juba,EE,57.82,26.93,90,93,275.37,6.2
